[
  {
    "id": "1",
    "name": "Alabama Psychiatry Pelham",
    "lat": "33.3006633",
    "lng": "-86.8160466",
    "category": "Mental Hospital",
    "address": "3040 Excelsior Blvd",
    "address2": "",
    "city": "Pelham",
    "state": "AL",
    "postal": "35124",
    "phone": "612-922-6662",
    "web": "https://www.allypsychiatry.com",
    "hours1": "Mon-Sun 11am-10pm",
    "hours2": "",
    "hours3": "",
    "featured": "",
    "features": "",
    "date": "10/17/18"
  },
    {
    "id": "2",
    "name": "Kentucky Psychiatry - Bowling Green",
    "lat": "36.9666238",
    "lng": "-86.4323377",
    "category": "Mental Hospital",
    "address": "1048 Ashley St STE 201",
    "address2": "",
    "city": "Bowling Green",
    "state": "KY",
    "postal": "42103",
    "phone": "+12702054585",
    "web": "https://www.allypsychiatry.com",
    "hours1": "Mon-Sun 11am-10pm",
    "hours2": "",
    "hours3": "",
    "featured": "",
    "features": "",
    "date": "10/17/18"
  },
      {
    "id": "3",
    "name": "Kentucky Psychiatry - Louisville",
    "lat": "36.9666195",
    "lng": "-87.5503683",
    "category": "Mental Hospital",
    "address": "801 Barret Ave Ste. 110",
    "address2": "",
    "city": "Louisville",
    "state": "KY",
    "postal": "40204",
    "phone": "+15027920275",
    "web": "https://www.allypsychiatry.com",
    "hours1": "Mon-Sun 11am-10pm",
    "hours2": "",
    "hours3": "",
    "featured": "",
    "features": "",
    "date": "10/17/18"
  },
        {
    "id": "4",
    "name": "Tennessee Psychiatry Franklin W. Main",
    "lat": "35.9139822",
    "lng": "-86.8863103",
    "category": "Mental Hospital",
    "address": "1325 W Main St Ste. 107",
    "address2": "",
    "city": "Franklin",
    "state": "TN",
    "postal": "37064",
    "phone": "+16293333820",
    "web": "https://www.allypsychiatry.com",
    "hours1": "Mon-Sun 11am-10pm",
    "hours2": "",
    "hours3": "",
    "featured": "",
    "features": "",
    "date": "10/17/18"
  },
          {
    "id": "5",
    "name": "Tennessee Psychiatry Jackson",
    "lat": "35.6769767",
    "lng": "-93.3369991",
    "category": "Mental Hospital",
    "address": "37 Sandstone Cir Suite 110",
    "address2": "",
    "city": "Jackson",
    "state": "TN",
    "postal": "38305",
    "phone": "+17314675515",
    "web": "https://www.allypsychiatry.com",
    "hours1": "Mon-Sun 11am-10pm",
    "hours2": "",
    "hours3": "",
    "featured": "",
    "features": "",
    "date": "10/17/18"
  },
          {
    "id": "6",
    "name": "Tennessee Psychiatry Madison",
    "lat": "36.2546288",
    "lng": "-86.687678",
    "category": "Mental Hospital",
    "address": "510 Hospital Dr #340",
    "address2": "",
    "city": "Madison",
    "state": "TN",
    "postal": "37115",
    "phone": "+16154226170",
    "web": "https://www.allypsychiatry.com",
    "hours1": "Mon-Sun 11am-10pm",
    "hours2": "",
    "hours3": "",
    "featured": "",
    "features": "",
    "date": "10/17/18"
  },
            {
    "id": "7",
    "name": "Alabama Psychiatry Dothan",
    "lat": "31.226137",
    "lng": "-85.435711",
    "category": "Mental Hospital",
    "address": "256 Honeysuckle Rd # 3",
    "address2": "",
    "city": "Dothan",
    "state": "AL",
    "postal": "36305",
    "phone": "",
    "web": "https://www.allypsychiatry.com",
    "hours1": "Mon-Sun 11am-10pm",
    "hours2": "",
    "hours3": "",
    "featured": "",
    "features": "",
    "date": "10/17/18"
  },
              {
    "id": "8",
    "name": "Alabama Psychiatry Gadsen",
    "lat": "31.226137",
    "lng": "-85.435711",
    "category": "Mental Hospital",
    "address": "940 Gilbert Ferry Rd SE b,Suite B",
    "address2": "",
    "city": "Attalla",
    "state": "AL",
    "postal": "35954",
    "phone": "",
    "web": "https://www.allypsychiatry.com",
    "hours1": "Mon-Sun 11am-10pm",
    "hours2": "",
    "hours3": "",
    "featured": "",
    "features": "",
    "date": "10/17/18"
  },
                {
    "id": "9",
    "name": "Alabama Psychiatry Gadsen",
    "lat": "33.998132",
    "lng": "-86.095485",
    "category": "Mental Hospital",
    "address": "940 Gilbert Ferry Rd SE b,Suite B",
    "address2": "",
    "city": "Attalla",
    "state": "AL",
    "postal": "35954",
    "phone": "",
    "web": "https://www.allypsychiatry.com",
    "hours1": "Mon-Sun 11am-10pm",
    "hours2": "",
    "hours3": "",
    "featured": "",
    "features": "",
    "date": "10/17/18"
  },
                  {
    "id": "10",
    "name": "Alabama Psychiatry North Shelby",
    "lat": "33.273115",
    "lng": "-86.829841",
    "category": "Mental Hospital",
    "address": "1109 Townhouse Rd,",
    "address2": "",
    "city": "Helena",
    "state": "AL",
    "postal": "35080",
    "phone": "",
    "web": "https://www.allypsychiatry.com",
    "hours1": "Mon-Sun 11am-10pm",
    "hours2": "",
    "hours3": "",
    "featured": "",
    "features": "",
    "date": "10/17/18"
  },
                    {
    "id": "11",
    "name": "Alabama Psychiatry Montgomery",
    "lat": "32.369889",
    "lng": "-86.168173",
    "category": "Mental Hospital",
    "address": "7400 East Dr",
    "address2": "",
    "city": "Montgomery",
    "state": "AL",
    "postal": "36117",
    "phone": "",
    "web": "https://www.allypsychiatry.com",
    "hours1": "Mon-Sun 11am-10pm",
    "hours2": "",
    "hours3": "",
    "featured": "",
    "features": "",
    "date": "10/17/18"
  },
                      {
    "id": "12",
    "name": "Alabama Psychiatry Sylacauga",
    "lat": "33.169047",
    "lng": "-86.254507",
    "category": "Mental Hospital",
    "address": "208 West Fort Williams Street",
    "address2": "",
    "city": "Montgomery",
    "state": "AL",
    "postal": "36117",
    "phone": "",
    "web": "https://www.allypsychiatry.com",
    "hours1": "Mon-Sun 11am-10pm",
    "hours2": "",
    "hours3": "",
    "featured": "",
    "features": "",
    "date": "10/17/18"
  },
                        {
    "id": "13",
    "name": "Alabama Psychiatry Spanish Fort",
    "lat": "30.672649",
    "lng": "-87.880329",
    "category": "Mental Hospital",
    "address": "8319 Spanish Fort Blvd",
    "address2": "",
    "city": "Spanish Fort",
    "state": "AL",
    "postal": "36117",
    "phone": "",
    "web": "https://www.allypsychiatry.com",
    "hours1": "Mon-Sun 11am-10pm",
    "hours2": "",
    "hours3": "",
    "featured": "",
    "features": "",
    "date": "10/17/18"
  },
                          {
    "id": "14",
    "name": "Alabama Psychiatry Vestavia",
    "lat": "33.460258",
    "lng": "-86.780349",
    "category": "Mental Hospital",
    "address": "1776 Independence Ct",
    "address2": "",
    "city": "Birmingham",
    "state": "AL",
    "postal": "35216",
    "phone": "",
    "web": "https://www.allypsychiatry.com",
    "hours1": "Mon-Sun 11am-10pm",
    "hours2": "",
    "hours3": "",
    "featured": "",
    "features": "",
    "date": "10/17/18"
  }
]
